{
  "form": {
    "title": "Đăng ký nhận tư vấn ngay",
    "form": {
      "name": "Họ tên",
      "phone": "Điện thoại",
      "email": "Email",
      "zalo": "Số điện thoại Zalo",
      "purpose": "Bạn cần PTE làm gì?",
      "score": "Bạn cần đạt bao nhiêu điểm PTE?",
      "time": "Thời gian bạn cần đạt số điểm trên?",
      "submit": "Tư vấn ngay",
      "submitting": "Đang gửi..."
    },
    "quick_consult": {
      "title": "Tư vấn nhanh",
      "australia": "+61 426 812 895 (Úc)",
      "vietnam": "+84 888 031 854 (Việt Nam)"
    },
    "quick_info": {
      "title": "Nhận tin nhanh",
      "zalo": "Zalo"
    },
    "hero_form_image_alt": "Hình ảnh hỗ trợ tư vấn"
  },
  "hero": {
    "title": "Liên hệ",
    "hero_image_alt": "Hình ảnh trang liên hệ"
  },
  "map": {
    "title": "Địa chỉ chi nhánh",
    "map_image_alt": "Bản đồ các chi nhánh",
    "locations": [
      {
        "city": "Hồ Chí Minh",
        "name": "Q3 Language Helper",
        "address": "440 Điện Biên Phủ, Phường 11, Quận 10, Hồ Chí Minh",
        "lat": 10.7769,
        "lng": 106.7009
      },
      {
        "city": "Hà Nội",
        "name": "Q3 Language Helper",
        "address": "440 Điện Biên Phủ, Phường 11, Quận 10, Hồ Chí Minh",
        "lat": 21.0285,
        "lng": 105.8542
      },
      {
        "city": "Đà Nẵng",
        "name": "Q3 Language Helper",
        "address": "123 Nguyễn Văn Linh, Quận Hải Châu, Đà Nẵng",
        "lat": 16.0471,
        "lng": 108.2068
      },
      {
        "city": "Cần Thơ",
        "name": "Q3 Language Helper",
        "address": "456 Nguyễn Trãi, Quận Ninh Kiều, Cần Thơ",
        "lat": 10.0333,
        "lng": 105.7833
      },
      {
        "city": "Nha Trang",
        "name": "Q3 Language Helper",
        "address": "Q3 Language Helper",
        "lat": 12.2388,
        "lng": 109.1967
      }
    ]
  }
}
